City_ID,City,Lat,Lng,Max Temp,Humidity,Cloudiness,Wind Speed,Country,Date
0,wailua homesteads,22.0669,-159.378,26.74,87,75,5.14,US,1730857770
1,rundu,-17.9333,19.7667,21.52,63,100,3.13,NA,1730857826
2,ketchikan,55.3422,-131.6461,7.99,87,100,8.23,US,1730857828
3,kapuskasing,49.4169,-82.4331,5.05,93,100,3.6,CA,1730857738
4,pikalevo,59.5183,34.1664,-0.65,95,100,1.81,RU,1730857830
5,waitangi,-43.9535,-176.5597,13.32,88,51,2.47,NZ,1730857724
6,aioun,16.6614,-9.6149,26.79,15,0,4.63,MR,1730857832
7,edinburgh of the seven seas,-37.0676,-12.3116,14.44,84,94,4.47,SH,1730857750
8,new norfolk,-42.7826,147.0587,28.84,28,69,5.64,AU,1730857834
9,hasaki,35.7333,140.8333,15.52,83,100,11.01,JP,1730857835
10,bilibino,68.0546,166.4372,-21.43,98,100,0.76,RU,1730857837
11,port-aux-francais,-49.35,70.2167,2.49,91,96,6.81,TF,1730857722
12,grytviken,-54.2811,-36.5092,1.77,92,100,5.32,GS,1730857762
13,mili,6.0815,171.735,29.13,75,100,7.55,MH,1730857840
14,quibor,9.9287,-69.6201,23.28,79,55,1.24,VE,1730857841
15,iqaluit,63.7506,-68.5145,-7.15,63,75,5.66,CA,1730857768
16,loen,7.7601,168.2307,29.37,77,64,8.23,MH,1730857844
17,ushuaia,-54.8,-68.3,3.81,87,75,4.63,AR,1730857515
18,lerwick,60.1545,-1.1494,10.12,84,100,4.15,GB,1730857847
19,hotan,37.0997,79.9269,10.75,30,0,1.81,CN,1730857848
20,albany,42.6001,-73.9662,17.58,74,3,0.45,US,1730857751
21,pangoa,-12.1167,-73.0,21.22,98,99,0.89,PE,1730857850
22,leh,34.1667,77.5833,1.63,32,10,1.61,IN,1730857851
23,cobadin,44.0833,28.2167,2.07,59,0,0.78,RO,1730857852
24,jaisalmer,26.9147,70.9181,25.96,37,0,3.12,IN,1730857853
25,olonkinbyen,70.9221,-8.7187,1.3,97,97,5.52,SJ,1730857733
26,stanley,54.868,-1.6985,8.62,93,100,1.54,GB,1730857753
27,fort st. john,56.2499,-120.8529,-0.06,74,75,5.14,CA,1730857857
28,hamilton,39.1834,-84.5333,22.97,69,40,7.2,US,1730857858
29,puerto ayora,-0.7393,-90.3518,19.91,74,98,3.61,EC,1730857859
30,shanghai,31.2222,121.4581,16.92,45,0,6.0,CN,1730857702
31,usinsk,65.9939,57.5281,-6.18,96,100,5.28,RU,1730857861
32,mount isa,-20.7333,139.5,38.87,24,7,5.14,AU,1730857725
33,guaruja,-23.9931,-46.2564,22.5,94,63,2.14,BR,1730857694
34,avarua,-21.2078,-159.775,24.03,83,100,2.57,CK,1730857865
35,papatowai,-46.5619,169.4708,15.76,59,8,2.61,NZ,1730857795
36,shache,38.4167,77.2406,10.22,35,5,2.13,CN,1730857867
37,bodo,67.28,14.405,7.65,83,100,8.23,NO,1730857868
38,lata,40.1629,-8.3327,15.88,93,100,1.03,PT,1730857869
39,whitehorse,60.7161,-135.0538,-0.57,86,100,12.86,CA,1730857870
40,carnarvon,-24.8667,113.6333,22.43,54,3,9.9,AU,1730857871
41,margate,51.3813,1.3862,9.93,85,56,2.88,GB,1730857873
42,pyt-yakh,60.7499,72.8582,-5.85,94,14,2.4,RU,1730857874
43,humaita,-7.5061,-63.0208,24.56,84,59,0.97,BR,1730857875
44,sisimiut,66.9395,-53.6735,-9.13,90,62,3.27,GL,1730857876
45,antofagasta,-23.65,-70.4,16.6,86,44,1.4,CL,1730857877
46,thompson,55.7435,-97.8558,-0.91,80,75,3.09,CA,1730857878
47,bethel,41.3712,-73.414,17.25,86,5,1.34,US,1730857757
48,mount darwin,-16.7725,31.5838,23.84,51,3,2.73,ZW,1730857881
49,adamstown,-25.066,-130.1015,22.1,84,100,6.07,PN,1730857741
50,ribeira grande,38.5167,-28.7,17.1,73,56,5.36,PT,1730857883
51,koton-karfe,8.1,6.8,23.97,58,0,0.51,NG,1730857884
52,yeniseysk,58.4497,92.1703,-2.47,93,97,2.15,RU,1730857885
53,bichura,50.5881,107.6022,-1.7,62,95,0.59,RU,1730857886
54,panacan,9.2463,118.4082,29.13,72,38,2.21,PH,1730857887
55,williams lake,52.1415,-122.1445,0.76,78,20,2.57,CA,1730857889
56,dongola,19.1667,30.4833,18.99,40,0,4.95,SD,1730857890
57,saint-denis,48.9167,2.3333,11.71,96,100,3.09,FR,1730857891
58,puerto natales,-51.7236,-72.4875,2.13,97,47,2.66,CL,1730857500
59,jamestown,42.097,-79.2353,20.8,60,0,5.14,US,1730857673
60,vennesla,58.2694,7.9741,4.68,100,100,2.06,NO,1730857894
61,egilsstadir,65.2653,-14.3948,10.95,76,40,10.8,IS,1730857895
62,norwich,52.6278,1.2983,10.1,92,100,2.06,GB,1730857896
63,san luis de la loma,17.2706,-100.8939,26.22,85,6,1.46,MX,1730857898
64,altay,47.8667,88.1167,7.02,77,100,1.79,CN,1730857746
65,ataq,14.5377,46.8319,19.99,80,0,2.9,YE,1730857900
66,papao,-17.75,-149.55,28.82,77,100,0.94,PF,1730857901
67,talnakh,69.4865,88.3972,-4.84,91,100,7.41,RU,1730857761
68,nova sintra,14.8667,-24.7167,26.24,79,3,9.95,CV,1730857903
69,la asuncion,11.0333,-63.8628,26.9,86,95,3.96,VE,1730857904
70,malango,-2.9627,119.9001,27.56,57,74,1.68,ID,1730857905
71,iwanai,42.9744,140.5089,6.42,62,98,1.73,JP,1730857907
72,marat,25.0701,45.4615,19.64,52,2,2.54,SA,1730857908
73,tsiombe,-25.3,45.4833,21.57,89,80,3.46,MG,1730857909
74,karamay,45.6004,84.8661,9.78,53,100,0.37,CN,1730857910
75,lompoc,34.6391,-120.4579,13.4,88,0,4.63,US,1730857797
76,okha,53.5739,142.9478,0.62,65,80,4.15,RU,1730857912
77,hadibu,12.65,54.0333,25.99,81,15,3.06,YE,1730857913
78,west island,-12.1568,96.8225,26.99,89,20,8.23,CC,1730857747
79,saipan,15.1355,145.701,32.39,79,20,7.72,MP,1730857916
80,tarfaya,27.9358,-12.9218,20.87,85,0,3.52,MA,1730857917
81,blackmans bay,-43.0167,147.3167,28.18,35,100,0.89,AU,1730857771
82,petropavlovsk-kamchatsky,53.0452,158.6483,0.33,40,20,6.0,RU,1730857919
83,la sarre,48.8002,-79.1996,7.34,97,100,3.29,CA,1730857920
84,kristiansund,63.1115,7.732,8.96,87,100,1.54,NO,1730857921
85,guiuan,11.0333,125.7247,27.85,76,38,1.43,PH,1730857922
86,hawaiian paradise park,19.5933,-154.9731,26.73,85,100,4.63,US,1730857923
87,khandyga,62.6667,135.6,-21.53,90,94,0.86,RU,1730857925
88,yellowknife,62.456,-114.3525,-4.71,93,100,2.06,CA,1730857766
89,nadi,-17.8,177.4167,29.0,61,40,5.14,FJ,1730857927
90,colares,38.7992,-9.4469,17.72,85,82,2.21,PT,1730857929
91,afaahiti,-17.75,-149.2833,26.14,81,100,2.6,PF,1730857930
92,sur,22.5667,59.5289,25.39,79,0,3.67,OM,1730857931
93,fort bragg,35.139,-79.006,20.46,79,0,2.06,US,1730857759
94,remire-montjoly,4.9167,-52.2667,26.02,94,20,1.54,GF,1730857815
95,hammerfest,70.6634,23.6821,6.25,70,75,9.26,NO,1730857935
96,monte cristo,-31.3431,-63.9444,21.26,40,0,2.12,AR,1730857936
97,boysun,38.2061,67.1986,16.53,55,100,1.31,UZ,1730857937
98,saint-pierre,-21.3393,55.4781,22.82,73,0,6.69,RE,1730857667
99,dauphin,51.1494,-100.0502,4.08,70,100,6.69,CA,1730857782
100,shingu,33.7333,135.9833,19.9,49,0,4.06,JP,1730857940
101,constantia,44.1833,28.65,-0.62,53,0,1.63,RO,1730857941
102,ciudad lazaro cardenas,17.9583,-102.2,26.24,82,4,0.98,MX,1730857943
103,grand falls-windsor,48.9332,-55.6649,3.02,96,100,4.22,CA,1730857944
104,bredasdorp,-34.5322,20.0403,12.08,88,77,2.33,ZA,1730857730
105,tiksi,71.6872,128.8694,-11.05,70,100,8.71,RU,1730857946
106,polyarnyy,69.1989,33.4478,3.61,79,100,10.81,RU,1730857947
107,gadzhiyevo,69.2551,33.3362,3.67,79,100,10.82,RU,1730857948
108,east london,-33.0153,27.9116,14.89,64,77,2.99,ZA,1730857816
109,hermanus,-34.4187,19.2345,12.11,87,62,5.69,ZA,1730857951
110,dursunbey,39.586,28.6257,2.19,88,0,1.94,TR,1730857953
111,dabat,12.9842,37.765,10.53,67,4,2.84,ET,1730857954
112,santo antonio do ica,-3.1022,-67.9397,25.69,81,11,0.8,BR,1730857955
113,effingham,32.3669,-81.3332,22.97,94,1,2.41,US,1730857956
114,arar,30.9753,41.0381,14.01,88,0,2.06,SA,1730857957
115,keflavik,64.0049,-22.5624,6.24,93,100,12.35,IS,1730857958
116,rio grande,-32.035,-52.0986,19.12,82,100,6.76,BR,1730857959
117,kapoeta,4.7717,33.5903,23.2,75,100,0.09,SS,1730857961
118,burabay,53.0838,70.3138,-3.12,81,100,7.21,KZ,1730857962
119,moree,-29.4667,149.85,37.34,16,3,2.21,AU,1730857963
120,xilin hot,43.9667,116.0333,1.56,40,7,4.37,CN,1730857964
121,puerto baquerizo moreno,-0.9,-89.6,19.88,73,67,3.76,EC,1730857965
122,tadine,-21.55,167.8833,25.12,58,74,5.47,NC,1730857966
123,kupang,-10.1667,123.5833,34.32,59,20,5.66,ID,1730857967
124,jianguang,28.1938,115.7836,19.26,51,0,5.32,CN,1730857968
125,margaret river,-33.95,115.0667,14.85,52,97,6.25,AU,1730857970
126,karor,31.2274,70.9492,22.76,30,0,0.87,PK,1730857971
127,anadyr,64.75,177.4833,-6.72,73,20,6.0,RU,1730857972
128,tura,25.5198,90.2201,23.04,82,100,0.72,IN,1730857736
129,ust-nera,64.5667,143.2,-22.98,97,57,1.46,RU,1730857974
130,alice springs,-23.7,133.8833,33.75,27,89,6.17,AU,1730857975
131,punta arenas,-53.15,-70.9167,6.06,81,75,6.17,CL,1730857709
132,kure,34.2333,132.5667,17.81,58,11,4.93,JP,1730857977
133,zyryanskoye,56.8306,86.6258,-2.05,77,78,2.17,RU,1730857979
134,zhanaozen,43.3,52.8,0.99,52,5,6.44,KZ,1730857980
135,kapa'a,22.0752,-159.319,27.49,87,75,5.14,US,1730857981
136,pawni,20.7833,79.6333,19.7,67,4,1.89,IN,1730857982
137,lagoa,39.05,-27.9833,16.65,64,100,10.94,PT,1730857983
138,brisas de zicatela,15.8369,-97.0419,28.29,89,75,5.14,MX,1730857984
139,fada,7.25,4.0667,21.19,83,0,0.08,NG,1730857985
140,lihue,21.9789,-159.3672,27.08,83,75,5.14,US,1730857907
141,namdrik,5.5994,168.1028,28.91,76,92,5.59,MH,1730857987
142,codrington,-38.2667,141.9667,21.23,61,100,10.41,AU,1730857989
143,tralee,52.2704,-9.7026,13.98,98,100,2.12,IE,1730857990
144,invercargill,-46.4,168.35,18.34,57,10,1.79,NZ,1730857842
145,college,64.8569,-147.8028,-1.01,75,75,2.06,US,1730857992
146,sinop,41.7711,34.8709,0.41,90,16,2.98,TR,1730857993
147,iskateley,67.6803,53.1512,-6.2,93,24,4.01,RU,1730857994
148,port elizabeth,-33.918,25.5701,14.6,72,100,2.5,ZA,1730857995
149,yemva,62.59,50.8594,-5.14,98,94,1.25,RU,1730857997
150,crane,31.3974,-102.3501,15.01,22,0,2.67,US,1730857998
151,port mathurin,-19.6833,63.4167,23.91,84,22,9.02,MU,1730857999
152,la mira,18.035,-102.3266,25.14,85,6,1.27,MX,1730858000
153,niquero,20.0431,-77.5828,25.92,90,100,9.17,CU,1730858001
154,saudarkrokur,65.7461,-19.6394,8.52,81,47,6.45,IS,1730858002
155,troitsko-pechorsk,62.7084,56.1964,-11.92,99,86,1.52,RU,1730858003
156,mount pearl,47.5166,-52.7813,1.29,88,40,2.57,CA,1730858004
157,naze,28.3667,129.4833,20.51,61,99,8.14,JP,1730858005
158,meulaboh,4.1363,96.1285,26.04,82,99,2.03,ID,1730858007
159,nar'yan-mar,67.6713,53.087,-6.23,93,23,4.02,RU,1730857959
160,buka,40.8108,69.1986,14.85,85,100,3.98,UZ,1730858009
161,mananjary,-21.2167,48.3333,22.48,88,97,1.34,MG,1730858010
162,vadso,70.0744,29.7487,4.09,75,100,14.4,NO,1730858011
163,magadan,59.5667,150.8,-13.27,66,76,3.88,RU,1730858012
164,marshall,34.3834,-86.3333,22.86,81,100,0.0,US,1730858013
165,yuzhno-kurilsk,44.0306,145.8556,4.29,92,100,2.29,RU,1730858016
166,malabar,-33.9667,151.25,30.48,59,0,6.17,AU,1730858017
167,emiliano zapata,18.8333,-99.1833,20.06,81,8,1.39,MX,1730857890
168,marianna,30.7744,-85.2269,26.02,61,100,0.0,US,1730858019
169,nemuro,43.3236,145.575,4.55,92,100,5.21,JP,1730858020
170,galesburg,40.9478,-90.3712,15.37,96,100,3.09,US,1730858021
171,sitka,57.0531,-135.33,8.94,81,100,8.75,US,1730858023
172,baki,-7.6128,110.7839,29.72,63,88,1.47,ID,1730858024
173,vernon,50.2581,-119.2691,4.74,56,33,1.03,CA,1730858026
174,hithadhoo,-0.6,73.0833,28.11,72,47,3.53,MV,1730858027
175,coquimbo,-29.9533,-71.3436,13.85,88,0,2.06,CL,1730857997
176,corner brook,48.9667,-57.9484,4.09,98,100,1.97,CA,1730857933
177,glace bay,46.1969,-59.957,10.09,96,100,4.12,CA,1730858030
178,geraldton,-28.7667,114.6,21.23,46,100,6.17,AU,1730858032
179,lebu,-37.6167,-73.65,11.39,89,100,3.19,CL,1730858033
180,kerikeri,-35.2268,173.9474,19.52,43,100,2.54,NZ,1730858034
181,tupa,-21.9347,-50.5136,21.6,92,19,4.21,BR,1730857981
182,pirapozinho,-22.2753,-51.5,23.71,83,40,2.57,BR,1730858036
183,boromo,11.75,-2.9333,22.78,26,1,3.15,BF,1730858037
184,ilulissat,69.2167,-51.1,-6.99,73,100,2.06,GL,1730857771
185,trouville-sur-mer,49.3657,0.0804,9.89,100,100,2.57,FR,1730858040
186,longyearbyen,78.2186,15.6401,-2.09,93,75,1.54,SJ,1730858041
187,mejit,10.2753,170.8646,28.68,81,90,9.01,MH,1730858043
188,lashio,22.9333,97.75,18.1,97,100,0.7,MM,1730858044
189,santa ana,33.7456,-117.8678,18.96,66,75,3.09,US,1730857806
190,selfoss,63.9331,-20.9971,7.25,94,100,12.26,IS,1730858046
191,kodiak,57.79,-152.4072,4.73,81,100,8.75,US,1730858047
192,tazovsky,67.4667,78.7,-8.59,94,87,5.42,RU,1730858048
193,umm kaddadah,13.6017,26.6876,21.54,26,4,6.66,SD,1730858049
194,havre,49.5833,0.3333,9.22,100,100,2.57,FR,1730858050
195,minas de marcona,-15.2119,-75.1103,13.66,87,49,6.05,PE,1730858051
196,mitu,1.1983,-70.1733,24.52,82,15,0.62,CO,1730858053
197,villa gesell,-37.2639,-56.973,13.7,56,0,4.5,AR,1730858054
198,ipu,-4.3222,-40.7108,23.74,39,98,1.28,BR,1730858055
199,queenstown,-31.8976,26.8753,7.17,90,100,2.6,ZA,1730858056
200,kosikha,53.3617,84.5822,-0.07,77,95,3.33,RU,1730858057
201,trondheim,63.4305,10.3951,7.03,92,100,0.45,NO,1730858058
202,orkney,-26.9802,26.6727,8.72,41,0,1.47,ZA,1730858059
203,akdepe,42.0551,59.3788,3.87,49,4,8.8,TM,1730858060
204,agustin codazzi,10.0341,-73.2361,23.09,97,45,2.14,CO,1730858061
205,banswada,18.3833,77.8833,21.36,72,39,1.21,IN,1730858063
206,gaigeturi,33.4644,126.3183,15.03,58,40,4.63,KR,1730857959
207,sabang,5.8933,95.3214,26.88,81,100,8.29,ID,1730858065
208,camapua,-19.5314,-54.0439,22.69,93,58,2.08,BR,1730858066
209,road town,18.4167,-64.6167,28.02,78,20,5.66,VG,1730858067
210,nadym,65.5333,72.5167,-5.94,91,100,9.42,RU,1730858068
211,staryye ozinki,51.1786,49.6769,-4.85,88,100,8.97,RU,1730857944
212,varzea da palma,-17.5981,-44.7308,19.9,97,100,0.45,BR,1730858070
213,richards bay,-28.783,32.0377,18.4,70,100,8.14,ZA,1730858072
214,ta`u,-14.2336,-169.5144,25.61,86,100,8.9,AS,1730858073
215,freetown,8.484,-13.2299,25.84,89,40,3.6,SL,1730858074
216,aqadyr,48.2553,72.8483,8.14,97,100,7.2,KZ,1730858075
217,kone,-21.0595,164.8658,26.9,50,82,2.05,NC,1730858076
218,georgetown,5.4112,100.3354,27.96,83,20,1.54,MY,1730857938
219,bayanhongor,46.7167,100.1167,-8.55,77,19,1.11,MN,1730858078
220,labrador city,52.9463,-66.9114,1.95,93,100,3.09,CA,1730858080
221,ola,59.5833,151.2833,-13.66,67,87,4.61,RU,1730858081
222,bayganin,48.6947,55.8742,-1.53,95,100,12.64,KZ,1730858082
223,dunedin,-45.8742,170.5036,14.41,77,2,3.0,NZ,1730858083
224,aasiaat,68.7098,-52.8699,-11.09,88,40,1.22,GL,1730858084
225,sao vicente,-23.9631,-46.3919,23.18,94,92,1.6,BR,1730858085
226,fortaleza,-3.7227,-38.5247,27.34,74,0,5.66,BR,1730857836
227,lhokseumawe,5.1801,97.1507,26.58,80,100,1.52,ID,1730858087
228,semey,50.4111,80.2275,2.12,93,100,5.0,KZ,1730858089
229,saldanha,-33.0117,17.9442,11.03,68,9,4.5,ZA,1730858090
230,twin falls,42.3505,-114.6445,1.19,51,0,6.17,US,1730858091
231,revda,56.801,59.9303,-4.18,94,100,3.78,RU,1730858092
232,querqueville,49.6625,-1.6912,11.82,100,100,1.03,FR,1730858093
233,marsabit,2.3284,37.9899,19.13,76,67,4.75,KE,1730858094
234,novodvinsk,64.4165,40.8122,-3.14,96,100,3.61,RU,1730858095
235,haiku-pauwela,20.9219,-156.3051,27.92,83,38,9.83,US,1730858096
236,whangarei,-35.7317,174.3239,20.97,41,100,0.73,NZ,1730858098
237,yutan,28.25,112.55,19.45,44,4,3.19,CN,1730858099
238,carutapera,-1.195,-46.02,25.11,78,100,2.82,BR,1730858100
239,klyuchi,52.2667,79.1667,-0.69,92,100,4.07,RU,1730858102
240,pont rouge,48.8833,-72.0825,7.93,100,100,2.17,CA,1730858103
241,yajiwa,11.3839,12.7236,21.09,31,8,2.39,NG,1730858104
242,kralendijk,12.15,-68.2667,28.99,84,20,5.14,BQ,1730858105
243,vilyuysk,63.7553,121.6247,-15.8,83,68,4.42,RU,1730858106
244,mossel bay,-34.1831,22.146,14.69,81,97,6.22,ZA,1730858108
245,badger,64.8,-147.5333,-1.05,74,75,2.06,US,1730858110
246,springbok,-29.6643,17.8865,12.82,43,89,10.73,ZA,1730858111
247,igra,57.5558,53.0547,-6.23,94,24,2.46,RU,1730858112
248,muridke,31.8025,74.2617,20.25,43,0,1.58,PK,1730858113
249,peniche,39.3558,-9.3811,17.89,98,100,2.28,PT,1730858115
250,el bayadh,33.6832,1.0193,13.2,42,0,1.03,DZ,1730858116
251,tumayr,25.7039,45.868,18.83,70,19,3.46,SA,1730858117
252,nguigmi,14.2495,13.1092,22.01,31,0,5.33,NE,1730858118
253,mar del plata,-38.0023,-57.5575,17.01,63,0,3.6,AR,1730857798
254,gilgit,35.9221,74.3087,11.44,42,2,1.68,PK,1730858120
255,tangalle,6.024,80.7911,26.39,81,81,0.48,LK,1730857863
256,tazacorte,28.629,-17.9293,19.54,66,0,4.02,ES,1730858124
257,puryong,42.0606,129.7117,0.29,29,0,7.51,KP,1730858125
258,sao joao da barra,-21.6403,-41.0511,22.57,83,77,4.45,BR,1730858126
259,jerecuaro,20.15,-100.5167,17.18,58,32,1.42,MX,1730858127
260,manta,-0.95,-80.7333,22.88,78,20,4.12,EC,1730857639
261,bellavista,-7.0561,-76.5911,23.63,88,94,0.95,PE,1730858129
262,isafjordur,66.0755,-23.124,5.51,93,99,3.9,IS,1730858130
263,ulety,51.3572,112.4849,-2.06,45,98,1.74,RU,1730858132
264,greenville,35.6127,-77.3663,18.01,94,0,0.0,US,1730857952
265,holualoa,19.6228,-155.9522,26.02,85,40,3.6,US,1730858134
266,akjoujt,19.6969,-14.4164,29.43,14,0,3.73,MR,1730858135
267,sampit,-2.5333,112.95,28.98,75,91,1.32,ID,1730858136
268,urengoy,65.9667,78.3667,-5.57,95,100,7.71,RU,1730858137
269,dolores,-36.3132,-57.6792,11.83,67,0,3.35,AR,1730858002
270,kaliningrad,54.7065,20.511,7.03,81,97,2.92,RU,1730858115
271,arraial do cabo,-22.9661,-42.0278,22.98,100,20,5.14,BR,1730858008
272,mena,51.5217,32.2157,4.87,76,100,6.27,UA,1730858142
273,visakhapatnam,17.69,83.2093,26.94,89,40,4.12,IN,1730858143
274,alotau,-10.3069,150.4462,29.85,69,90,3.29,PG,1730858144
275,carbonear,47.7332,-53.2148,2.41,83,100,3.81,CA,1730858145
276,puerto francisco de orellana,-0.4667,-76.9667,23.16,90,6,1.36,EC,1730858147
277,victoria,22.2855,114.1577,25.18,66,3,2.43,HK,1730858099
278,mitsamiouli,-11.3847,43.2844,26.7,83,2,4.68,KM,1730858150
279,sortavala,61.7053,30.6918,2.87,98,100,2.82,RU,1730858151
280,goz beida,13.95,20.55,23.52,26,2,4.24,TD,1730858152
281,qaqortoq,60.7167,-46.0333,-13.37,84,5,2.25,GL,1730858153
282,amal,59.051,12.7049,6.21,93,56,3.21,SE,1730858154
283,hilo,19.7297,-155.09,26.85,86,100,4.63,US,1730858155
284,tobelo,1.7284,128.0095,28.79,73,22,2.48,ID,1730858156
285,souillac,-20.5167,57.5167,22.21,88,40,0.0,MU,1730858159
286,vallenar,-28.5708,-70.7581,19.67,45,0,2.01,CL,1730858160
287,manacapuru,-3.2997,-60.6206,28.18,62,0,2.75,BR,1730858161
288,diamantino,-14.4086,-56.4461,22.85,95,100,1.66,BR,1730858162
289,kayangel,8.0823,134.7173,28.44,75,100,2.97,PW,1730858163
290,lhasa,29.65,91.1,2.63,72,100,2.05,CN,1730857963
291,mashhad,36.297,59.6062,13.08,94,100,7.2,IR,1730858165
292,miracema do tocantins,-9.5618,-48.3967,22.55,94,100,1.62,BR,1730858167
293,amga,60.8953,131.9608,-20.61,91,45,1.08,RU,1730858168
294,potchefstroom,-26.7167,27.1,8.39,39,0,1.38,ZA,1730858169
295,tchintabaraden,15.8969,5.7985,21.68,21,0,5.83,NE,1730858170
296,guarapari,-20.6667,-40.4975,20.68,88,18,1.8,BR,1730858171
297,mount gambier,-37.8333,140.7667,19.82,57,100,5.43,AU,1730858172
298,konarka,19.9,86.1167,25.18,81,7,4.19,IN,1730858173
299,birobidzhan,48.8,132.95,-2.12,64,87,0.89,RU,1730858174
300,farafangana,-22.8167,47.8333,22.71,86,96,2.43,MG,1730858176
301,pangody,65.85,74.4859,-5.85,94,100,7.55,RU,1730858177
302,laguna,38.421,-121.4238,18.98,27,0,8.23,US,1730858178
303,waingapu,-9.6567,120.2641,31.41,55,83,6.01,ID,1730858179
304,moura,38.1401,-7.4486,15.94,92,10,1.66,PT,1730858180
305,kingston,17.997,-76.7936,26.53,89,100,11.32,JM,1730857845
306,mgandu,-5.95,34.1333,20.54,61,100,2.32,TZ,1730858182
307,pechora,65.1472,57.2244,-5.65,95,99,3.44,RU,1730858183
308,loralai,30.3705,68.598,16.29,31,0,1.37,PK,1730858184
309,callao,-12.0667,-77.15,19.84,77,100,5.14,PE,1730858020
310,elko,41.0002,-115.5012,-0.99,72,0,4.02,US,1730857949
311,ghanzi,-21.5667,21.7833,17.52,14,22,3.73,BW,1730858188
312,pacific grove,36.6177,-121.9166,16.47,80,0,4.92,US,1730857894
313,mount pleasant,32.7941,-79.8626,22.78,94,75,2.06,US,1730858190
314,nakamura,32.9833,132.9333,18.65,55,0,3.23,JP,1730858159
315,bossangoa,6.4926,17.4552,21.78,75,17,0.73,CF,1730858192
316,auki,-8.7676,160.7034,30.8,63,90,1.53,SB,1730858193
317,inhambane,-23.865,35.3833,22.63,85,13,1.93,MZ,1730858194
318,caykara,40.7548,40.2355,-2.28,82,47,4.1,TR,1730858196
319,namibe,-15.1961,12.1522,19.81,83,99,1.93,AO,1730858197
320,swan hill,-35.3378,143.5544,37.78,15,100,9.3,AU,1730858198
321,utrik,11.2278,169.8474,28.46,81,23,9.65,MH,1730858199
322,bel ombre,-4.6167,55.4167,25.91,83,20,0.51,SC,1730858200
323,mo i rana,66.3128,14.1428,5.74,93,100,2.06,NO,1730858201
324,es castell,39.8795,4.2854,17.38,94,5,2.57,ES,1730858202
325,montevideo,-34.8335,-56.1674,16.84,58,0,4.12,UY,1730857594
326,sao gabriel da cachoeira,-0.1303,-67.0892,23.4,94,7,1.15,BR,1730858204
327,sandpoint,48.2766,-116.5533,4.08,75,100,0.0,US,1730858206
328,liman,48.9884,37.8023,-0.37,95,100,4.74,UA,1730858207
329,kalmunai,7.4167,81.8167,25.9,82,35,3.63,LK,1730858208
330,uturoa,-16.7333,-151.4333,27.33,79,73,3.17,PF,1730858209
331,jindrichuv hradec,49.144,15.003,0.41,84,100,1.26,CZ,1730858210
332,herat,34.5,62.0,12.81,72,0,6.79,AF,1730858211
333,san fernando,15.0286,120.6898,28.85,67,55,1.35,PH,1730858098
334,flying fish cove,-10.4217,105.6791,27.82,83,100,6.69,CX,1730858213
335,tosontsengel,48.7567,98.2839,-4.44,76,100,1.63,MN,1730858215
336,vila velha,-20.3297,-40.2925,23.97,93,20,1.54,BR,1730858214
337,san antonio de pale,-1.4014,5.6325,25.43,85,100,4.54,GQ,1730858217
338,dudinka,69.4058,86.1778,-4.89,93,100,8.36,RU,1730858218
339,crucecita,-28.95,-58.9833,21.49,78,39,4.47,AR,1730858219
340,hit,33.6416,42.8251,18.02,58,0,2.45,IQ,1730858220
341,hafar al-batin,28.4328,45.9708,18.32,72,0,4.63,SA,1730858221
342,eraan,9.0629,117.7016,30.49,66,29,0.95,PH,1730858223
343,kruisfontein,-34.0033,24.7314,11.94,85,100,1.7,ZA,1730858224
344,tsumeb,-19.2333,17.7167,23.35,28,45,2.78,NA,1730858225
345,askoy,60.4092,5.226,7.16,93,75,4.12,NO,1730858226
346,son la,21.3167,103.9,18.76,80,97,1.16,VN,1730858227
347,hammamet,36.4,10.6167,19.45,80,0,2.94,TN,1730858228
348,tumpat,6.1978,102.171,26.99,89,20,1.54,MY,1730858229
349,sept-iles,50.2001,-66.3821,3.36,98,100,2.06,CA,1730858102
350,fougamou,-1.2154,10.5838,22.22,98,100,0.47,GA,1730858231
351,atafu village,-8.5421,-172.5159,28.07,64,63,4.28,TK,1730858233
352,bemidji,47.4736,-94.8803,5.03,89,100,1.54,US,1730858235
353,salaverry,-8.2333,-78.9667,17.21,92,100,3.21,PE,1730858237
354,alvaraes,-3.2208,-64.8042,24.8,86,45,1.3,BR,1730858238
355,ancud,-41.8697,-73.8203,9.62,78,88,5.53,CL,1730858240
356,hereford,52.0568,-2.7148,10.74,98,100,1.5,GB,1730858241
357,tengrela,10.4869,-6.4097,20.66,38,0,1.78,CI,1730858242
358,san patricio,28.017,-97.5169,20.97,58,0,3.16,US,1730858243
359,novyy urgal,51.0736,132.5642,-7.24,64,99,0.74,RU,1730858244
360,udachny,66.4167,112.4,-6.47,95,100,1.63,RU,1730858245
361,lospalos,-8.5186,127.0025,29.53,59,93,3.3,TL,1730858246
362,chegdomyn,51.1167,133.0167,-7.47,63,100,1.67,RU,1730858247
363,arvayheer,46.2639,102.775,2.88,24,6,0.84,MN,1730858249
364,bulgan,48.8125,103.5347,-1.36,61,100,1.12,MN,1730858250
365,madingou,-4.1536,13.55,22.23,96,100,0.63,CG,1730858251
366,tromso,69.6496,18.957,4.01,93,100,3.09,NO,1730858166
367,viedma,-40.8135,-62.9967,19.2,23,97,3.85,AR,1730858253
368,corfu,39.62,19.9197,13.23,94,0,0.0,GR,1730858254
369,ryotsu-minato,38.0833,138.4333,10.95,77,100,1.88,JP,1730858255
370,katabu,-4.9333,122.5167,31.44,57,34,2.83,ID,1730858256
371,yashkul',46.1711,45.3435,0.16,63,69,8.02,RU,1730858258
372,howard springs,-12.497,131.047,34.43,65,26,2.7,AU,1730858259
373,buncrana,55.1333,-7.45,12.13,95,100,2.65,IE,1730858260
374,alofi,-19.0595,-169.9187,24.94,73,100,5.66,NU,1730858262
375,vorgashor,67.5833,63.95,-4.85,95,100,5.69,RU,1730858263
376,abqaiq,25.9371,49.6776,23.57,82,0,3.47,SA,1730858264
377,tara,56.8944,74.371,-3.9,86,100,2.45,RU,1730858265
378,debica,50.0515,21.4114,1.86,62,53,2.24,PL,1730858267
379,valparaiso,-33.0393,-71.6273,14.8,58,0,3.09,CL,1730858268
380,lesogorsk,56.0458,99.5136,-4.6,94,96,1.23,RU,1730858223
381,lubuklinggau,-3.3,102.8667,24.96,83,100,1.44,ID,1730858270
382,el calafate,-50.3408,-72.2768,4.48,70,2,4.22,AR,1730858271
383,extrema,-22.8547,-46.3183,18.21,96,98,2.42,BR,1730858272
384,sardarapat,40.1321,44.0097,3.81,35,1,3.89,AM,1730858273
385,rio gallegos,-51.6226,-69.2181,4.03,87,100,7.2,AR,1730858024
386,posto fiscal rolim de moura,-13.0833,-62.2667,21.99,98,100,2.56,BR,1730858275
387,takoradi,4.8845,-1.7554,25.68,84,17,1.23,GH,1730858277
388,yakeshi,49.2833,120.7333,-6.4,54,97,1.7,CN,1730858279
389,san pedro,14.35,121.0167,29.06,83,40,1.54,PH,1730858280
390,belmonte,-15.8631,-38.8828,22.78,90,99,0.98,BR,1730858284
391,tocopilla,-22.092,-70.1979,17.04,76,7,0.77,CL,1730858285
392,severobaykal'sk,55.65,109.3167,-2.56,76,9,0.4,RU,1730858286
393,palangkaraya,-2.2,113.8333,30.11,65,99,1.13,ID,1730858180
394,goundi,9.3627,17.366,23.66,52,14,0.64,TD,1730858289
395,portland,45.5234,-122.6762,10.27,90,100,2.06,US,1730858058
396,port moresby,-9.4431,147.1797,32.68,58,40,7.72,PG,1730858291
397,brookings,44.3114,-96.7984,1.25,93,0,3.6,US,1730858292
398,xuddur,4.1213,43.8894,22.44,89,82,4.65,SO,1730858293
399,bikenibeu village,1.3673,173.1241,30.98,74,20,4.63,KI,1730858294
400,bazas,44.432,-0.2133,14.95,98,51,1.14,FR,1730858295
401,lake jackson,29.0339,-95.4344,22.02,68,100,2.57,US,1730858296
402,punalur,9.0,76.9333,24.63,79,38,0.67,IN,1730858298
403,la'ie,21.6477,-157.9253,27.98,80,27,1.79,US,1730858299
404,cartagena,10.3997,-75.5144,26.79,89,20,1.54,CO,1730858089
405,andovoranto,-18.95,49.1,22.22,90,47,0.43,MG,1730858301
406,paramonga,-10.6667,-77.8333,18.9,89,100,3.15,PE,1730858302
407,paphos,34.7667,32.4167,17.88,72,13,3.6,CY,1730858303
408,conception bay south,47.4999,-52.9981,1.97,90,100,4.36,CA,1730858304
409,happy valley-goose bay,53.3168,-60.3315,1.17,100,100,2.06,CA,1730858305
410,qandala,11.472,49.8728,26.21,75,5,0.91,SO,1730858308
411,cafayate,-26.073,-65.9761,18.06,80,100,1.95,AR,1730858309
412,karratha,-20.7377,116.8463,37.59,17,38,3.33,AU,1730858310
413,ghadamis,30.1337,9.5007,19.99,34,28,3.57,LY,1730858311
414,rabo de peixe,37.8,-25.5833,17.73,94,75,10.8,PT,1730858312
415,mandapam,9.2833,79.1167,28.01,74,100,6.2,IN,1730858313
416,vila franca do campo,37.7167,-25.4333,18.23,98,100,9.96,PT,1730858314
417,fale old settlement,-9.3852,-171.2468,28.32,67,95,5.16,TK,1730858316
418,onguday,50.75,86.15,3.47,98,100,1.35,RU,1730858317
419,ipora,-16.4419,-51.1178,20.06,99,100,1.39,BR,1730858318
420,pijijiapan,15.7011,-93.23,24.78,92,73,1.11,MX,1730858319
421,fiambala,-27.6871,-67.6149,18.28,70,53,3.14,AR,1730858320
422,kargasok,59.0556,80.8572,-2.88,83,46,3.34,RU,1730858321
423,letterkenny,54.95,-7.7333,11.63,97,100,2.22,IE,1730858322
424,sakakah,29.9697,40.2064,19.76,62,0,3.82,SA,1730858323
425,vicksburg,32.3526,-90.8779,22.82,100,75,5.14,US,1730858100
426,suva,-18.1416,178.4415,24.71,83,100,4.12,FJ,1730858231
427,velingara,13.15,-14.1167,24.07,39,0,1.16,SN,1730858327
428,lyuban',52.7985,28.0048,3.53,89,90,5.01,BY,1730858328
429,aykhal,66.0,111.5,-6.36,91,100,3.25,RU,1730858112
430,ayr,55.4627,-4.6339,11.99,87,100,5.14,GB,1730858330
431,la passe,45.5549,-0.8967,14.78,85,47,1.83,FR,1730857786
432,enewetak,11.3474,162.3373,28.86,78,99,7.55,MH,1730858333
433,jayapura,-2.5333,140.7,31.66,66,12,2.54,ID,1730858308
434,sainte-anne-des-monts,49.124,-66.4924,6.93,93,100,4.12,CA,1730858335
435,itoman,26.1247,127.6694,24.43,64,75,10.29,JP,1730858147
436,ghat,24.9647,10.1728,17.19,40,51,1.49,LY,1730858337
437,taos,36.4072,-105.5731,4.22,56,20,4.12,US,1730858338
438,nanga eboko,4.6833,12.3667,21.16,82,99,0.26,CM,1730858339
439,kirsanov,52.6549,42.7224,-3.81,86,72,4.19,RU,1730858341
440,chechelnyk,48.2127,29.3599,1.35,45,100,2.96,UA,1730858342
441,damara,4.9608,18.7035,22.24,84,15,0.53,CF,1730858343
442,busayra,30.7376,35.6078,13.59,54,0,4.14,JO,1730858344
443,sao raimundo nonato,-9.0153,-42.6994,26.28,44,71,0.85,BR,1730858345
444,tuy hoa,13.0833,109.3,26.23,89,85,4.53,VN,1730858346
445,castillos,-34.1667,-53.8333,13.27,84,0,1.94,UY,1730858347
446,palikir - national government center,6.9248,158.1611,31.47,70,40,5.14,FM,1730858348
447,cabo san lucas,22.8909,-109.9124,21.52,70,0,3.51,MX,1730858148
448,pampierstad,-27.7832,24.6877,7.59,65,1,3.6,ZA,1730858351
449,st. john's,47.5649,-52.7093,1.75,85,40,2.57,CA,1730857672
450,wanning,18.8003,110.3967,24.75,83,96,5.05,CN,1730858354
451,yanggu,36.1106,115.7753,13.67,26,0,3.1,CN,1730858117
452,semirara,12.0697,121.3986,27.42,75,19,4.66,PH,1730858356
453,dompu,-8.5356,118.4622,33.17,43,99,3.41,ID,1730858357
454,bubaque,11.2833,-15.8333,28.45,76,2,4.13,GW,1730858359
455,sarupathar,26.1984,93.8094,22.3,85,100,1.39,IN,1730858360
456,sena madureira,-9.0656,-68.6569,27.91,56,73,0.51,BR,1730858362
457,guajara mirim,-10.7828,-65.3394,27.77,63,92,1.55,BR,1730858363
458,nizhniy odes,63.6445,54.856,-5.96,96,100,2.34,RU,1730858364
459,balqash,46.8481,74.995,9.62,98,96,5.49,KZ,1730858366
460,celso ramos,-27.6344,-51.3364,18.95,96,57,1.83,BR,1730858367
461,roosevelt,33.9668,-103.4505,8.83,38,5,4.42,US,1730858368
462,turabah,21.2141,41.6331,21.96,40,0,3.32,SA,1730858369
463,corinto,37.9407,22.9573,14.94,67,4,2.36,GR,1730858370
464,port douglas,-16.4833,145.4667,27.28,58,20,4.49,AU,1730858371
465,nuku'alofa,-21.1333,-175.2,24.19,83,75,6.17,TO,1730858372
466,hasilpur,29.7122,72.5553,23.93,31,0,2.57,PK,1730858373
467,fundacion,10.5207,-74.185,24.9,89,72,2.04,CO,1730858375
468,newnham,-41.3833,147.1333,25.53,50,20,10.8,AU,1730858376
469,kotabumi,-4.8333,104.9,29.74,64,75,0.69,ID,1730858377
470,gonzaga,44.9498,10.8209,9.47,97,77,0.43,IT,1730858378
471,qingnian,36.8456,115.7117,13.68,25,0,3.12,CN,1730858379
472,anna regina,7.2644,-58.5077,27.44,80,99,3.8,GY,1730858382
473,narrabri,-30.3167,149.7833,36.96,29,30,1.34,AU,1730858383
474,tete,-16.1564,33.5867,30.05,45,0,3.6,MZ,1730858384
475,otjiwarongo,-20.4637,16.6477,20.79,25,10,4.77,NA,1730858385
476,hengchun,22.0042,120.7439,25.02,68,84,13.38,TW,1730858386
477,jimenez,28.3333,-105.4,15.7,25,0,3.16,MX,1730858387
478,al bawiti,28.3492,28.8659,15.52,77,0,2.95,EG,1730858389
479,ijevan,40.8783,45.1492,-0.52,62,9,0.83,AM,1730858390
480,kemijarvi,66.7131,27.4306,-1.52,99,100,0.55,FI,1730858391
481,qamdo,31.1667,97.2333,1.21,63,100,0.88,CN,1730858392
482,taoudenni,22.6783,-3.9836,27.27,16,100,4.43,ML,1730858393
483,stratford,41.1845,-73.1332,17.59,92,4,0.89,US,1730858394
484,teteven,42.9167,24.2667,2.7,62,6,1.46,BG,1730858395
485,amos,48.5669,-78.1162,7.84,97,100,2.82,CA,1730858119
486,misratah,32.3754,15.0925,20.48,70,2,2.0,LY,1730858398
487,pauini,-7.7136,-66.9764,25.73,71,0,1.45,BR,1730858399
488,hirara,24.8,125.2833,25.15,61,75,12.35,JP,1730858400
489,gobabis,-22.45,18.9667,14.91,18,9,4.22,NA,1730858401
490,rakops,-21.0167,24.3333,24.75,8,88,3.95,BW,1730858403
491,konstantinovskoye,45.2992,42.6367,-0.96,74,10,6.79,RU,1730858404
492,kushiro,42.975,144.3747,6.53,49,75,1.54,JP,1730858151
493,colonia,50.9333,6.95,6.74,87,100,1.54,DE,1730858406
494,altamira,-3.2033,-52.2064,25.61,57,79,1.25,BR,1730858394
495,yarkovo,57.4028,67.0786,-2.82,76,100,2.8,RU,1730858405
496,molalla,45.1473,-122.577,9.62,82,100,1.79,US,1730858363
497,chernomorskoye,45.5039,32.6997,7.85,54,23,3.73,UA,1730858411
498,tome,-36.6167,-72.95,13.34,80,100,2.74,CL,1730858412
499,pastos bons,-6.6017,-44.0767,24.71,63,75,1.29,BR,1730858413
500,caleta de carquin,-11.0925,-77.6267,18.83,89,100,3.33,PE,1730858415
501,ar rahad,12.7167,30.65,22.0,24,2,3.99,SD,1730858416
502,praia da vitoria,38.7333,-27.0667,19.14,72,20,6.41,PT,1730858418
503,itabirito,-20.2533,-43.8014,17.34,97,100,1.03,BR,1730858419
504,taltal,-25.4,-70.4833,16.85,78,39,2.2,CL,1730858420
505,nagqu,31.5,92.0,-2.05,31,100,1.56,CN,1730858421
506,dampit,-8.2116,112.7493,30.13,49,83,1.84,ID,1730858422
507,port lincoln,-34.7333,135.8667,19.99,56,100,7.06,AU,1730858423
508,maintirano,-18.0667,44.0167,25.13,69,98,1.89,MG,1730858424
509,piedras negras,28.7,-100.5167,19.59,35,0,2.55,MX,1730858425
510,calvinia,-31.4707,19.776,10.95,55,36,5.95,ZA,1730858427
511,burela de cabo,43.65,-7.4,14.21,82,100,1.7,ES,1730858428
512,lycksele,64.5954,18.6735,2.93,93,2,1.54,SE,1730858430
513,miquelon,47.0975,-56.3814,8.77,95,100,10.58,PM,1730858431
514,karmaskaly,54.3709,56.1837,-3.05,98,100,3.86,RU,1730858432
515,torbat-e heydariyeh,35.274,59.2195,15.05,68,50,2.29,IR,1730858433
516,jilikul,37.4917,68.5311,19.23,56,92,1.71,TJ,1730858434
517,kampong thom,12.7111,104.8887,26.89,78,42,4.33,KH,1730858435
518,mirny,62.5353,113.9611,-1.27,96,100,5.11,RU,1730858223
519,asau,46.4333,26.4,1.87,55,0,2.35,RO,1730858438
520,bengkulu,-3.8004,102.2655,25.68,85,95,2.12,ID,1730858439
521,weno,7.4515,151.8468,29.6,73,94,6.62,FM,1730858440
522,nurota,40.5614,65.6886,11.93,73,100,3.5,UZ,1730858441
523,angaur state,6.906,134.13,28.26,77,100,2.99,PW,1730858442
524,jesup,31.6074,-81.8854,21.96,94,0,0.0,US,1730858421
525,kirensk,57.7853,108.1119,-4.89,93,39,1.73,RU,1730858444
526,kyren,51.6828,102.1408,0.63,94,100,0.23,RU,1730858445
527,new plymouth,-39.0667,174.0833,17.67,100,100,0.81,NZ,1730858447
528,yelizovo,53.1873,158.3805,1.08,40,20,6.0,RU,1730858448
529,natal,-5.795,-35.2094,26.12,78,40,3.09,BR,1730858167
530,ponta delgada,37.7333,-25.6667,18.4,94,75,10.8,PT,1730858450
531,mariinsk,56.2139,87.7472,-2.15,77,28,1.57,RU,1730858451
532,severo-yeniseyskiy,60.3725,93.0408,-4.96,90,100,4.02,RU,1730858452
533,el coacoyul,17.6167,-101.4333,26.12,86,23,1.2,MX,1730858453
534,marsh harbour,26.5412,-77.0636,26.25,89,8,10.81,BS,1730858455
535,fish town,5.1964,-7.8756,21.45,96,0,0.54,LR,1730858456
536,east ballina,-28.8667,153.5833,27.7,62,0,6.61,AU,1730858457
537,manadhoo,5.7667,73.3833,27.33,75,98,4.23,MV,1730858458
538,recani,31.2846,-4.2688,19.75,34,1,1.78,MA,1730858459
539,harper,4.375,-7.7169,24.87,88,4,2.29,LR,1730858460
540,port alfred,-33.5906,26.891,15.23,62,93,2.84,ZA,1730858461
541,al jahra',29.3375,47.6581,21.09,49,4,5.6,KW,1730858463
542,kamachumu,-1.6186,31.62,15.78,88,99,1.71,TZ,1730858464
543,lewistown,40.5992,-77.5714,17.31,82,0,0.0,US,1730858392
544,wuyang,31.9925,116.2472,15.89,35,0,4.53,CN,1730858466
545,shimoda,34.6667,138.95,20.14,60,2,1.9,JP,1730858467
546,nioki,-2.7167,17.6833,22.04,94,100,1.3,CD,1730858469
547,brynamman,51.8,-3.8667,10.89,90,72,1.04,GB,1730858470
548,peace river,56.2501,-117.286,-1.83,93,0,1.03,CA,1730858471
549,teknaf,20.8624,92.3058,25.41,81,59,2.61,BD,1730858472
550,pisco,-13.7,-76.2167,18.03,82,0,4.12,PE,1730858473
551,wewak,-3.5534,143.6268,29.87,65,14,2.54,PG,1730858474
552,jiaojiang,28.6803,121.4428,16.63,65,0,6.02,CN,1730858475
553,hassi messaoud,31.6804,6.0729,18.92,39,0,1.03,DZ,1730858478
554,hinton,53.4001,-117.5857,-5.07,90,9,1.25,CA,1730858479
555,montepuez,-13.1256,38.9997,20.85,92,26,2.39,MZ,1730858480
556,las terrenas,19.311,-69.5428,26.31,89,100,4.36,DO,1730858481
557,midvagur,62.0511,-7.1939,9.46,100,100,11.32,FO,1730858483
558,blackwater,-23.5833,148.8833,33.75,27,11,3.49,AU,1730858486
559,ostersund,63.1792,14.6357,5.25,93,100,5.14,SE,1730858488
560,saint-joseph,-21.3667,55.6167,22.21,80,23,3.81,RE,1730858489
561,ubari,26.5921,12.7805,16.36,51,0,2.8,LY,1730858418
562,greymouth,-42.4667,171.2,14.74,96,90,5.01,NZ,1730858492
563,shevchenko,48.5,35.0,3.72,40,100,5.58,UA,1730858494
564,plesetsk,62.708,40.2916,-3.83,92,100,3.15,RU,1730858496
565,susuman,62.7833,148.1667,-25.66,99,100,0.69,RU,1730858497
566,luganville,-15.5333,167.1667,25.56,83,99,3.85,VU,1730858499
567,camaqua,-30.8511,-51.8122,19.8,86,100,2.89,BR,1730858500
568,lazaro cardenas,17.9583,-102.2,26.24,82,4,0.98,MX,1730858502
569,rawai,7.7797,98.3253,26.01,81,100,2.73,TH,1730858504
570,la toma,-33.0526,-65.6238,16.37,79,1,4.68,AR,1730858506
571,kudahuvadhoo,2.6708,72.8944,28.06,75,89,3.54,MV,1730858507
572,mogocha,53.7333,119.7667,-11.72,78,100,0.54,RU,1730858508
573,luchegorsk,46.4764,134.2569,-1.44,50,94,3.19,RU,1730858214
574,pryamitsyno,51.6561,35.9314,0.3,100,100,2.62,RU,1730858511
575,les cayes,18.2,-73.75,24.32,93,100,1.39,HT,1730858512
